[
  {
    "Name": "Девяткино",
    "Lat": 60.0503972,
    "Lon": 30.4424083,
    "LineColor": "#FF0000",
    "Line": "Кировско-Выборгская линия",
    "Order": 0
  },
  {
    "Name": "Гражданский проспект",
    "Lat": 60.0350028,
    "Lon": 30.4180750,
    "LineColor": "#FF0000",
    "Line": "Кировско-Выборгская линия",
    "Order": 1
  },
  {
    "Name": "Академическая",
    "Lat": 60.0127194,
    "Lon": 30.3960250,
    "LineColor": "#FF0000",
    "Line": "Кировско-Выборгская линия",
    "Order": 2
  },
  {
    "Name": "Политехническая",
    "Lat": 60.0088750,
    "Lon": 30.3708667,
    "LineColor": "#FF0000",
    "Line": "Кировско-Выборгская линия",
    "Order": 3
  },
  {
    "Name": "Площадь Мужества",
    "Lat": 59.9999194,
    "Lon": 30.3666833,
    "LineColor": "#FF0000",
    "Line": "Кировско-Выборгская линия",
    "Order": 4
  },
  {
    "Name": "Лесная",
    "Lat": 59.9849806,
    "Lon": 30.3442389,
    "LineColor": "#FF0000",
    "Line": "Кировско-Выборгская линия",
    "Order": 5
  },
  {
    "Name": "Выборгская",
    "Lat": 59.9711940,
    "Lon": 30.3477583,
    "LineColor": "#FF0000",
    "Line": "Кировско-Выборгская линия",
    "Order": 6
  },
  {
    "Name": "Площадь Ленина",
    "Lat": 59.9556861,
    "Lon": 30.3558694,
    "LineColor": "#FF0000",
    "Line": "Кировско-Выборгская линия",
    "Order": 7
  },
  {
    "Name": "Чернышевская",
    "Lat": 59.9444889,
    "Lon": 30.3599889,
    "LineColor": "#FF0000",
    "Line": "Кировско-Выборгская линия",
    "Order": 8
  },
  {
    "Name": "Площадь Восстания",
    "Lat": 59.9313111,
    "Lon": 30.3607611,
    "LineColor": "#FF0000",
    "Line": "Кировско-Выборгская линия",
    "Order": 9
  },
  {
    "Name": "Владимирская",
    "Lat": 59.9277417,
    "Lon": 30.3479720,
    "LineColor": "#FF0000",
    "Line": "Кировско-Выборгская линия",
    "Order": 10
  },
  {
    "Name": "Пушкинская",
    "Lat": 59.9204556,
    "Lon": 30.3297750,
    "LineColor": "#FF0000",
    "Line": "Кировско-Выборгская линия",
    "Order": 11
  },
  {
    "Name": "Технологический институт",
    "Lat": 59.9164222,
    "Lon": 30.3185111,
    "LineColor": "#FF0000",
    "Line": "Кировско-Выборгская линия",
    "Order": 12
  },
  {
    "Name": "Балтийская",
    "Lat": 59.9072917,
    "Lon": 30.2996917,
    "LineColor": "#FF0000",
    "Line": "Кировско-Выборгская линия",
    "Order": 13
  },
  {
    "Name": "Нарвская",
    "Lat": 59.9011028,
    "Lon": 30.2748861,
    "LineColor": "#FF0000",
    "Line": "Кировско-Выборгская линия",
    "Order": 14
  },
  {
    "Name": "Кировский завод",
    "Lat": 59.8796390,
    "Lon": 30.2617972,
    "LineColor": "#FF0000",
    "Line": "Кировско-Выборгская линия",
    "Order": 15
  },
  {
    "Name": "Автово",
    "Lat": 59.8672861,
    "Lon": 30.2614556,
    "LineColor": "#FF0000",
    "Line": "Кировско-Выборгская линия",
    "Order": 16
  },
  {
    "Name": "Ленинский проспект",
    "Lat": 59.8517833,
    "Lon": 30.2683222,
    "LineColor": "#FF0000",
    "Line": "Кировско-Выборгская линия",
    "Order": 17
  },
  {
    "Name": "Проспект Ветеранов",
    "Lat": 59.8418861,
    "Lon": 30.2517780,
    "LineColor": "#FF0000",
    "Line": "Кировско-Выборгская линия",
    "Order": 18
  },
  {
    "Name": "Парнас",
    "Lat": 60.0670083,
    "Lon": 30.3339389,
    "LineColor": "#0078C9",
    "Line": "Московско-Петроградская линия",
    "Order": 0
  },
  {
    "Name": "Проспект Просвещения",
    "Lat": 60.0516333,
    "Lon": 30.3324806,
    "LineColor": "#0078C9",
    "Line": "Московско-Петроградская линия",
    "Order": 1
  },
  {
    "Name": "Озерки",
    "Lat": 60.0371472,
    "Lon": 30.3216639,
    "LineColor": "#0078C9",
    "Line": "Московско-Петроградская линия",
    "Order": 2
  },
  {
    "Name": "Удельная",
    "Lat": 60.016694,
    "Lon": 30.315700,
    "LineColor": "#0078C9",
    "Line": "Московско-Петроградская линия",
    "Order": 3
  },
  {
    "Name": "Пионерская",
    "Lat": 60.0026639,
    "Lon": 30.2967306,
    "LineColor": "#0078C9",
    "Line": "Московско-Петроградская линия",
    "Order": 4
  },
  {
    "Name": "Черная речка",
    "Lat": 59.9852583,
    "Lon": 30.3011500,
    "LineColor": "#0078C9",
    "Line": "Московско-Петроградская линия",
    "Order": 5
  },
  {
    "Name": "Петроградская",
    "Lat": 59.9661917,
    "Lon": 30.3117083,
    "LineColor": "#0078C9",
    "Line": "Московско-Петроградская линия",
    "Order": 6
  },
  {
    "Name": "Горьковская",
    "Lat": 59.9561361,
    "Lon": 30.3188528,
    "LineColor": "#0078C9",
    "Line": "Московско-Петроградская линия",
    "Order": 7
  },
  {
    "Name": "Невский проспект",
    "Lat": 59.9351670,
    "Lon": 30.3284440,
    "LineColor": "#0078C9",
    "Line": "Московско-Петроградская линия",
    "Order": 8
  },
  {
    "Name": "Сенная площадь",
    "Lat": 59.9271556,
    "Lon": 30.3203556,
    "LineColor": "#0078C9",
    "Line": "Московско-Петроградская линия",
    "Order": 9
  },
  {
    "Name": "Технологический институт",
    "Lat": 59.9164222,
    "Lon": 30.3185111,
    "LineColor": "#0078C9",
    "Line": "Московско-Петроградская линия",
    "Order": 10
  },
  {
    "Name": "Фрунзенская",
    "Lat": 59.906273,
    "Lon": 30.31745,
    "LineColor": "#0078C9",
    "Line": "Московско-Петроградская линия",
    "Order": 11
  },
  {
    "Name": "Московские ворота",
    "Lat": 59.8915611,
    "Lon": 30.3180389,
    "LineColor": "#0078C9",
    "Line": "Московско-Петроградская линия",
    "Order": 12
  },
  {
    "Name": "Электросила",
    "Lat": 59.8791194,
    "Lon": 30.3187028,
    "LineColor": "#0078C9",
    "Line": "Московско-Петроградская линия",
    "Order": 13
  },
  {
    "Name": "Парк Победы",
    "Lat": 59.8663900,
    "Lon": 30.3217083,
    "LineColor": "#0078C9",
    "Line": "Московско-Петроградская линия",
    "Order": 14
  },
  {
    "Name": "Московская",
    "Lat": 59.8521528,
    "Lon": 30.3219972,
    "LineColor": "#0078C9",
    "Line": "Московско-Петроградская линия",
    "Order": 15
  },
  {
    "Name": "Звездная",
    "Lat": 59.8332556,
    "Lon": 30.3494528,
    "LineColor": "#0078C9",
    "Line": "Московско-Петроградская линия",
    "Order": 16
  },
  {
    "Name": "Купчино",
    "Lat": 59.8297167,
    "Lon": 30.3754806,
    "LineColor": "#0078C9",
    "Line": "Московско-Петроградская линия",
    "Order": 17
  },
  {
    "Name": "Беговая",
    "Lat": 59.9873060,
    "Lon": 30.2024720,
    "LineColor": "#009A49",
    "Line": "Невско-Василеостровская линия",
    "Order": 0
  },
  {
    "Name": "Новокрестовская",
    "Lat": 59.9722200,
    "Lon": 30.2116700,
    "LineColor": "#009A49",
    "Line": "Невско-Василеостровская линия",
    "Order": 1
  },
  {
    "Name": "Приморская",
    "Lat": 59.9485361,
    "Lon": 30.2343639,
    "LineColor": "#009A49",
    "Line": "Невско-Василеостровская линия",
    "Order": 2
  },
  {
    "Name": "Василеостровская",
    "Lat": 59.9426722,
    "Lon": 30.2783000,
    "LineColor": "#009A49",
    "Line": "Невско-Василеостровская линия",
    "Order": 3
  },
  {
    "Name": "Гостиный двор",
    "Lat": 59.9338000,
    "Lon": 30.3330361,
    "LineColor": "#009A49",
    "Line": "Невско-Василеостровская линия",
    "Order": 4
  },
  {
    "Name": "Маяковская",
    "Lat": 59.9315333,
    "Lon": 30.3549250,
    "LineColor": "#009A49",
    "Line": "Невско-Василеостровская линия",
    "Order": 5
  },
  {
    "Name": "Площадь Александра Невского 1",
    "Lat": 59.9243861,
    "Lon": 30.3858972,
    "LineColor": "#009A49",
    "Line": "Невско-Василеостровская линия",
    "Order": 6
  },
  {
    "Name": "Елизаровская",
    "Lat": 59.8967639,
    "Lon": 30.4235361,
    "LineColor": "#009A49",
    "Line": "Невско-Василеостровская линия",
    "Order": 7
  },
  {
    "Name": "Ломоносовская",
    "Lat": 59.8774861,
    "Lon": 30.4419139,
    "LineColor": "#009A49",
    "Line": "Невско-Василеостровская линия",
    "Order": 8
  },
  {
    "Name": "Пролетарская",
    "Lat": 59.8652722,
    "Lon": 30.4702167,
    "LineColor": "#009A49",
    "Line": "Невско-Василеостровская линия",
    "Order": 9
  },
  {
    "Name": "Обухово",
    "Lat": 59.8487528,
    "Lon": 30.4576861,
    "LineColor": "#009A49",
    "Line": "Невско-Василеостровская линия",
    "Order": 10
  },
  {
    "Name": "Рыбацкое",
    "Lat": 59.8309361,
    "Lon": 30.5000861,
    "LineColor": "#009A49",
    "Line": "Невско-Василеостровская линия",
    "Order": 11
  },
  {
    "Name": "Горный институт",
    "Lat": 59.931750,
    "Lon": 30.262716,
    "LineColor": "#EA7125",
    "Line": "Лахтинско-Правобережная линия",
    "Order": 0
  },
  {
    "Name": "Спасская",
    "Lat": 59.9267833,
    "Lon": 30.3196361,
    "LineColor": "#EA7125",
    "Line": "Лахтинско-Правобережная линия",
    "Order": 1
  },
  {
    "Name": "Достоевская",
    "Lat": 59.9282667,
    "Lon": 30.3463778,
    "LineColor": "#EA7125",
    "Line": "Лахтинско-Правобережная линия",
    "Order": 2
  },
  {
    "Name": "Лиговский проспект",
    "Lat": 59.9206806,
    "Lon": 30.3549361,
    "LineColor": "#EA7125",
    "Line": "Лахтинско-Правобережная линия",
    "Order": 3
  },
  {
    "Name": "Площадь Александра Невского 2",
    "Lat": 59.9235083,
    "Lon": 30.3834194,
    "LineColor": "#EA7125",
    "Line": "Лахтинско-Правобережная линия",
    "Order": 4
  },
  {
    "Name": "Новочеркасская",
    "Lat": 59.9289806,
    "Lon": 30.4119056,
    "LineColor": "#EA7125",
    "Line": "Лахтинско-Правобережная линия",
    "Order": 5
  },
  {
    "Name": "Ладожская",
    "Lat": 59.9324278,
    "Lon": 30.4391250,
    "LineColor": "#EA7125",
    "Line": "Лахтинско-Правобережная линия",
    "Order": 6
  },
  {
    "Name": "Проспект Большевиков",
    "Lat": 59.9199720,
    "Lon": 30.4666333,
    "LineColor": "#EA7125",
    "Line": "Лахтинско-Правобережная линия",
    "Order": 7
  },
  {
    "Name": "Улица Дыбенко",
    "Lat": 59.9074528,
    "Lon": 30.4833060,
    "LineColor": "#EA7125",
    "Line": "Лахтинско-Правобережная линия",
    "Order": 8
  },
  {
    "Name": "Комендантский проспект",
    "Lat": 60.0084170,
    "Lon": 30.2587611,
    "LineColor": "#702785",
    "Line": "Фрунзенско-Приморская линия",
    "Order": 0
  },
  {
    "Name": "Старая Деревня",
    "Lat": 59.9892333,
    "Lon": 30.2551361,
    "LineColor": "#702785",
    "Line": "Фрунзенско-Приморская линия",
    "Order": 1
  },
  {
    "Name": "Крестовский остров",
    "Lat": 59.9717833,
    "Lon": 30.2594472,
    "LineColor": "#702785",
    "Line": "Фрунзенско-Приморская линия",
    "Order": 2
  },
  {
    "Name": "Чкаловская",
    "Lat": 59.9610667,
    "Lon": 30.2919833,
    "LineColor": "#702785",
    "Line": "Фрунзенско-Приморская линия",
    "Order": 3
  },
  {
    "Name": "Спортивная",
    "Lat": 59.9504917,
    "Lon": 30.2881694,
    "LineColor": "#702785",
    "Line": "Фрунзенско-Приморская линия",
    "Order": 4
  },
  {
    "Name": "Адмиралтейская",
    "Lat": 59.9359278,
    "Lon": 30.3150560,
    "LineColor": "#702785",
    "Line": "Фрунзенско-Приморская линия",
    "Order": 5
  },
  {
    "Name": "Садовая",
    "Lat": 59.9266528,
    "Lon": 30.3174806,
    "LineColor": "#702785",
    "Line": "Фрунзенско-Приморская линия",
    "Order": 6
  },
  {
    "Name": "Звенигородская",
    "Lat": 59.9223583,
    "Lon": 30.3357833,
    "LineColor": "#702785",
    "Line": "Фрунзенско-Приморская линия",
    "Order": 7
  },
  {
    "Name": "Обводный канал",
    "Lat": 59.9146472,
    "Lon": 30.3495611,
    "LineColor": "#702785",
    "Line": "Фрунзенско-Приморская линия",
    "Order": 8
  },
  {
    "Name": "Волковская",
    "Lat": 59.8960806,
    "Lon": 30.3580028,
    "LineColor": "#702785",
    "Line": "Фрунзенско-Приморская линия",
    "Order": 9
  },
  {
    "Name": "Бухарестская",
    "Lat": 59.8837360,
    "Lon": 30.3689940,
    "LineColor": "#702785",
    "Line": "Фрунзенско-Приморская линия",
    "Order": 10
  },
  {
    "Name": "Международная",
    "Lat": 59.8703111,
    "Lon": 30.3789139,
    "LineColor": "#702785",
    "Line": "Фрунзенско-Приморская линия",
    "Order": 11
  },
  {
    "Name": "Проспект Славы",
    "Lat": 59.8566130,
    "Lon": 30.3954460,
    "LineColor": "#702785",
    "Line": "Фрунзенско-Приморская линия",
    "Order": 12
  },
  {
    "Name": "Дунайская",
    "Lat": 59.8397200,
    "Lon": 30.4111100,
    "LineColor": "#702785",
    "Line": "Фрунзенско-Приморская линия",
    "Order": 13
  },
  {
    "Name": "Шушары",
    "Lat": 59.8201000,
    "Lon": 30.4325400,
    "LineColor": "#702785",
    "Line": "Фрунзенско-Приморская линия",
    "Order": 14
  }
]